[
    {
        "name": "Leslie-Lohman Museum Free Admission Sunday",
        "description": "Free Admission Sunday at LeslieLohman Museum of Gay and Lesbian Art - see INFO below.",
        "date": "June 18 @ 12pm - 6pm. Weekly - Sundays",
        "address": "Leslie-Lohman Museum, 26 Wooster St, New York, NY",
        "activity_type": "Art",
        "city": "New York",
        "latitude": 40.72163289004395,
        "longitude": -74.00302245937613
    },
    {
        "name": "Open Studio - Fhg @ Governors Island",
        "description": "From May - October, drop by our O\ufeffpen Studio hours to chat with our resident artists and get a glimpse of their artistic processes!",
        "date": "June 18 @ 12pm - 5pm",
        "address": "Governors Island, Colonels Row House 410A, New York, NY 11231",
        "activity_type": "Art",
        "city": "New York",
        "latitude": 40.69260721256913,
        "longitude": -74.01857830919413
    },
    {
        "name": "8th Annual Prince Brunch @ Sisters",
        "description": "June 18.",
        "date": "June 18 @ 12pm - 3pm",
        "address": "Sisters, 900 Fulton Street, Brooklyn, NY 11238, New York, NY",
        "activity_type": "Entertainment",
        "city": "New York",
        "latitude": 40.68299221285445,
        "longitude": -73.96513469077621
    },
    {
        "name": "Egg Rolls, Egg Creams, And Empanadas Street Festival!!!",
        "description": "Join us on Eldridge Street between Canal and Division for the Museum at Eldridge Street\u2019s signature event!",
        "date": "June 18 @ 12pm - 4pm",
        "address": "Museum at Eldridge Street, 12 Eldridge Street, New York City, NY",
        "activity_type": "Festival",
        "city": "New York",
        "latitude": 40.714740801514765,
        "longitude": -73.99362662469025
    },
    {
        "name": "Pangea Hosts Runway The Real Way \" Would-Have-Been Birthday\" Do The Gru!!",
        "description": "M\ufeffark Gruenwald would have been 70 years old on June 18th!",
        "date": "June 18 @ 12pm - 4:30pm",
        "address": "178 2nd Ave, 178 2nd Avenue, New York, NY 10003",
        "activity_type": "Entertainment",
        "city": "New York",
        "latitude": 40.7305190477997,
        "longitude": -73.98602002992584
    },
    {
        "name": "R&B Sundays At Taj Nyc!! Best Brunch In The City!! #Socialcity",
        "description": "R&B SUNDAYS @ TAJ NYC!!!",
        "date": "June 18 @ 12pm - 11pm",
        "address": "Taj II Lounge and Event Space, 48 West 21st Street, New York, NY 10010",
        "activity_type": "Happy Hour",
        "city": "New York",
        "latitude": 40.74133753820952,
        "longitude": -73.99327795197438
    },
    {
        "name": "Toast On Sundayz! #Party247nyca Luxury Dining Experience!",
        "description": "A LUXURY DINING EXPERIENCE!",
        "date": "June 18 @ 12pm - 3pm",
        "address": "Lagos TSQ, 727 7th Avenue, New York, NY 10019",
        "activity_type": "Lounge",
        "city": "New York",
        "latitude": 40.76009705385948,
        "longitude": -73.98374041595288
    },
    {
        "name": "Brunch With Bruncher's @ Breuklyn Tequila & Taco Bar Sunday",
        "description": "Each and Every Sunday 12pm - 8pm B R E U K L Y N B R U N C H Bottomless Mimosas 11am - 2pm 1177 Bedford Ave, Brooklyn, NY 11216 This Ticket Allows Free Entry ...",
        "date": "June 18 @ 12pm - 8pm",
        "address": "Breuklyn Tequila & Taco Bar, 1177 Bedford Avenue, Brooklyn, NY 11216, New York, NY",
        "activity_type": "Bar",
        "city": "New York",
        "latitude": 40.68310403401712,
        "longitude": -73.95367102909806
    },
    {
        "name": "Bric Free Admission Sunday",
        "description": "Free Admission Sunday at BRIC - see INFO below.",
        "date": "June 18 @ 12pm - 6pm. Weekly - Sundays",
        "address": "BRIC House, 647 Fulton Street, Brooklyn, NY, New York, NY",
        "activity_type": "Entertainment",
        "city": "New York",
        "latitude": 40.688389605957866,
        "longitude": -73.97924095012615
    },
    {
        "name": "\"Ros\u00c9-All-Day Sundays\" @ Watermark Beach - Pier 15 Nycto Purchase Open Bar ...",
        "description": "TO PURCHASE OPEN BAR TICKETS CLICK HERE",
        "date": "June 18 @ 12pm - 11pm",
        "address": "Watermark, Pier 15, 78 South Street, New York, NY 10038",
        "activity_type": "Bar",
        "city": "New York",
        "latitude": 40.70450466194375,
        "longitude": -74.00317091264594
    },
    {
        "name": "Juneteenth Eve In Crown Heights",
        "description": "Juneteenth Eve in Crown Heights Join us for an unforgettable day celebrating Juneteenth in the vibrant neighborhood of Crown Heights.",
        "date": "June 18 @ 12pm - 6pm",
        "address": "Brower Park, Park Pl, Brooklyn, NY 11213, New York, NY",
        "activity_type": "Entertainment",
        "city": "New York",
        "latitude": 40.67343731124101,
        "longitude": -73.94331005017139
    },
    {
        "name": "Vibezy Brunchvibezy Brunch",
        "description": "VIBEZY BRUNCH EVERY SUNDAY 12PM - 7PM WE BRING THE VIBEZ WHILE YOU BRUNCH LOCATION: ALLAN'S BAR AND LOUNGE 1107 NOSTRAND AVE EVERYONE FREE W/RSVP",
        "date": "June 18 @ 12pm - 7pm",
        "address": "Allan\u2019s Bar & Cafe, 1107 Nostrand Avenue, Brooklyn, NY 11225, New York, NY",
        "activity_type": "Bar",
        "city": "New York",
        "latitude": 40.66067508663258,
        "longitude": -73.95035854168414
    },
    {
        "name": "Fallin' For Brunch (Each & Every Sunday)",
        "description": "B\ufeffLU Seafood Resturant Bar Presents Fallin' For Brunch (Each & Every Sunday) We've fall'n for a lot of things but most importantly we can never pass up a ...",
        "date": "June 18 @ 12pm - 5pm",
        "address": "Blu Seafood Resturant & Bar, 222-02 Merrick Boulevard, Queens, NY 11413, New York, NY",
        "activity_type": "Bar",
        "city": "New York",
        "latitude": 40.67788672101312,
        "longitude": -73.74699428282432
    },
    {
        "name": "Sunday Brunch At Skinny's Cantina On The Hudson",
        "description": "Sunday Brunch at Skinny\u2019s Cantina on the Hudson 701 West 133rd St, New York, NY 10027 Brunch 12pm-4pm Specials Live DJ - Weekly Rotation For Reservations, ...",
        "date": "June 18 @ 12pm - 6pm",
        "address": "Skinny's Cantina On The Hudson, 701 West 133rd Street, New York, NY 10027",
        "activity_type": "Entertainment",
        "city": "New York",
        "latitude": 40.82021595217462,
        "longitude": -73.95900500454991
    },
    {
        "name": "Juneteenth Food Festival",
        "description": "Join Weeksville Heritage Center and Jummy\u2019s Picks by Black-Owned Brooklyn for our second annual Juneteenth Food Festival on June 17 and 18, from 12-7 pm.",
        "date": "June 18 @ 12pm - 7pm",
        "address": "Weeksville Heritage Center, 158 Buffalo Avenue, Brooklyn, NY 11213, New York, NY",
        "activity_type": "Festival",
        "city": "New York",
        "latitude": 40.674026636147275,
        "longitude": -73.92522306532213
    },
    {
        "name": "Moma Ps1 Free Admission Sundays",
        "description": "Free Admission Sundays to MoMA PS1 INFO below.",
        "date": "June 18 @ 12pm - 6pm. Weekly",
        "address": "MoMA PS1, 22-25 Jackson Ave, New York, New York 11101",
        "activity_type": "Art",
        "city": "New York",
        "latitude": 40.74558453485945,
        "longitude": -73.9471231660436
    },
    {
        "name": "Juneteenth Music & Market Fest",
        "description": "Come out and celebrate with us at the first annual Juneteenth Music and Market Fest in the Bronx.",
        "date": "June 18 @ 12pm - 6pm",
        "address": "Cedar Playground, 1890 Cedar Avenue, The Bronx, NY 10453, New York, NY",
        "activity_type": "Music",
        "city": "New York",
        "latitude": 40.85508119960561,
        "longitude": -73.91740203044847
    },
    {
        "name": "Come Make A Instagram Video Or Tiktok For A Free Gift !",
        "description": "COME CREATE CONTENT HERE AT GODS FOR A FREE GIFT !",
        "date": "June 18 @ 12:30pm - 3:30pm",
        "address": "156 Sullivan St, 156 Sullivan Street, New York, NY 10012",
        "activity_type": "Entertainment",
        "city": "New York",
        "latitude": 40.727505889971,
        "longitude": -74.00181049765003
    },
    {
        "name": "\ud83c\udf79 Happy Hour Extravaganza: $1 Tacos And $9 Margaritas! \ud83c\udf2e\ud83c\udf79",
        "description": "This event is free, but a General Ticket must be obtained to reserve your spot, and presented to the Host: [hidden] \ud83c\udf2e Culinary Delights: Savor the flavors of ...",
        "date": "June 18 @ 12:30pm - 3pm",
        "address": "Ready Rooftop, 112 E 11th St, NY, NY, New York, NY",
        "activity_type": "Happy Hour",
        "city": "New York",
        "latitude": 40.73147782325839,
        "longitude": -73.98948002824329
    },
    {
        "name": "Brooklyn Brewery - Free Tours Sundays",
        "description": "Free Brooklyn Brewery Tours Sundays every half hour - See INFO below.",
        "date": "June 18 @ 1pm - 6pm. Weekly - Sundays",
        "address": "Brooklyn Brewery, 79 N 11th Street, New York, New York 11249",
        "activity_type": "Bar",
        "city": "New York",
        "latitude": 40.721813034431364,
        "longitude": -73.95780719971016
    },
    {
        "name": "Karaoke * Brunch * Shop Black",
        "description": "The Ultimate Sunday Funday includes Brunch, Karaoke, and the opportunity to shop Black Owned Businesses.",
        "date": "June 18 @ 1pm - 6pm",
        "address": "333 Flatbush Ave, 333 Flatbush Avenue, Brooklyn, NY 11217, New York, NY",
        "activity_type": "Music",
        "city": "New York",
        "latitude": 40.67792697983961,
        "longitude": -73.9726849058534
    },
    {
        "name": "The New York Public Library Free Admission Sunday",
        "description": "Free Admission Sunday at The New York Public Library - see INFO below.",
        "date": "June 18 @ 1pm - 5pm. Weekly - Sundays",
        "address": "The New York Public Library\u2019s Stephen A. Schwarzman Building, 476 5th Ave, New York, NY",
        "activity_type": "Entertainment",
        "city": "New York",
        "latitude": 40.753120981874154,
        "longitude": -73.98226129867837
    },
    {
        "name": "Juneteenth & Fathers Day Edition Of R&B Sundays (Brunch & Day Party)Xquizit ...",
        "description": "XQUIZIT ENT PRESENTS \"R&B SUNDAYS\" Brunch & Day Party Experience TAJ II RESTAURANT, NIGHTCLUB & LOUNGE 48 W.21st Street (5th & 6th Ave.) ...",
        "date": "June 18 @ 1pm - 11pm",
        "address": "Taj II Lounge and Event Space, 48 West 21st Street, New York, NY 10010",
        "activity_type": "Lounge",
        "city": "New York",
        "latitude": 40.74125624518037,
        "longitude": -73.99313437398558
    },
    {
        "name": "Brenda Holder Annual Unity Pre Pride Event Pride On The Pier",
        "description": "FREE EVENT ALL AGES FUN FAMILY INCLUSIVE 6-18-23 1PM- 7PM BRENDA HOLDER PRESENTS THE ANNUAL PRE PRIDE UNITY EVENT ON THE CHARLES STREET PIER NYC WITH HOUSE ...",
        "date": "June 18 @ 1pm - 7pm",
        "address": "CHARLES STRRET PIER, CHARLES ST PIER, NYC, NY 10014, New York, NY",
        "activity_type": "Family",
        "city": "New York",
        "latitude": 40.734639394152914,
        "longitude": -74.00530176638738
    },
    {
        "name": "The Bhmc Celebrates Juneteenth: Break Every Chain!",
        "description": "Join the North Manhattan Alumnae Chapter of Delta Sigma Theta Sorority, Inc.",
        "date": "June 18 @ 1pm - 3pm",
        "address": "Fort Washington Collegiate Church, 729 West 181st Street, New York, NY 10033",
        "activity_type": "Entertainment",
        "city": "New York",
        "latitude": 40.85104278760798,
        "longitude": -73.93761304882143
    },
    {
        "name": "Caribbean-Afro Brunch \u2022 Each & Every Sunday \u2022 Reserve Now 917.676.6307",
        "description": "EACH & EVERY SUNDAY \"BRUNCH OR WHAT\" CARIBBEAN-AMERICAN BRUNCH Seating intervals: 1pm \u2022 2:30pm \u2022 4pm \u2022 5:30pm PLEASE ARRIVE EARLY FOR RESERVATIONS At ...",
        "date": "June 18 @ 1pm - 7pm",
        "address": "Richards Restaurant & Lounge, 9404 Avenue L, Brooklyn, NY 11236, New York, NY",
        "activity_type": "Entertainment",
        "city": "New York",
        "latitude": 40.635826895948924,
        "longitude": -73.8990814776568
    },
    {
        "name": "Pride Vendors & Outdoor Music At Culture Lab Lic!",
        "description": "On June 18th join Ducky & Patsy for Together!",
        "date": "June 18 @ 2pm - 9pm",
        "address": "Culture Lab LIC at The Plaxall Gallery, 5-25 46th Avenue, Queens, NY 11101, New York, NY",
        "activity_type": "Music",
        "city": "New York",
        "latitude": 40.74752585662652,
        "longitude": -73.95457347952949
    },
    {
        "name": "Brunch On Sundays \u2022 2hr Bottomless Brunch + Dayparty \u2022 Celebrate Your Bday",
        "description": "EACH & EVERY SUNDAY BRUNCH IN MANHATTAN AT ITS BEST!",
        "date": "June 18 @ 2pm - 10pm",
        "address": "The Stafford Room, 617 West 46th Street #4th Floor, New York, NY 10036",
        "activity_type": "Entertainment",
        "city": "New York",
        "latitude": 40.76387777196056,
        "longitude": -73.99727831584838
    },
    {
        "name": "Nahysha Graduation Party",
        "description": "Please join us for this wonderful occasion..",
        "date": "June 18 @ 2pm - 5pm",
        "address": "Greater Temple Of Praise, 157 Snediker Avenue, Brooklyn, NY 11207, New York, NY",
        "activity_type": "Happy Hour",
        "city": "New York",
        "latitude": 40.67157394287393,
        "longitude": -73.90145949944366
    },
    {
        "name": "Naarak Sundays",
        "description": "Escape to Naarak Sundays, a haven for those looking for a different kind of Sunday hangout.",
        "date": "June 18 @ 2pm - 8pm",
        "address": "High Bar New York, 346 West 40th Street, New York, NY 10018",
        "activity_type": "Music",
        "city": "New York",
        "latitude": 40.75675413177165,
        "longitude": -73.99290160367657
    },
    {
        "name": "Brunch Me Sundays",
        "description": "Music By: DJ VARGAS - DJ XRATED - DJ LINKZ - DJ TRUE & MORE Top 40 / Reggae / HipHop / Trap / Soca / R&B / Afrobeats We bring you to the islands at our ...",
        "date": "June 18 @ 2pm - 7pm",
        "address": "Alpha Restaurant & Lounge, 40-06 Astoria Boulevard South, Queens, NY 11103, New York, NY",
        "activity_type": "Music",
        "city": "New York",
        "latitude": 40.76877563490756,
        "longitude": -73.91069779880921
    },
    {
        "name": "Life Sunday\u2019S At Coco La Reve",
        "description": "Life Sunday\u2019s at Coco la Reve $29.99 Prix Fixe Brunch Menu course includes 1 pitcher mimosa 1 appetizer Brunch hours 12pm-6pm ( 2 Bottles for $300 before 6pm ) ...",
        "date": "June 18 @ 2pm - 7pm",
        "address": "Coco La Reve, 42-18 31st Avenue, Queens, NY 11103, New York, NY",
        "activity_type": "Entertainment",
        "city": "New York",
        "latitude": 40.7603179703383,
        "longitude": -73.91525950119987
    },
    {
        "name": "Brunch On Sundays At Cavali Rsvp Now.!",
        "description": "BRUNCH & VIBES SUNDAYS @ CAVALI NEW YORK Drinks, Food & Hookah available all day Top 40's, Hip-Hop, Reggae ,Soca ,R&B, Classics & All Latin \" ...",
        "date": "June 18 @ 2pm - 10pm",
        "address": "Cavali New York, 3621 Steinway Street, Queens, NY 11101",
        "activity_type": "Food",
        "city": "New York",
        "latitude": 40.752912050386264,
        "longitude": -73.92364121089416
    },
    {
        "name": "The Biggest Brunch In Queens With Free Admission And A Full Menu Available!",
        "description": "$40 Brunch Entr\u00e9e 90 Mins Of UNLIMITED Sangria or Mimosas Butter Milk Fried Chicken & Waffles French Toast With Scrambled Eggs Cheeseburger Sliders W/ ...",
        "date": "June 18 @ 2pm - 4pm",
        "address": "Cavali New York, 3621 Steinway Street, Queens, NY 11101",
        "activity_type": "Entertainment",
        "city": "New York",
        "latitude": 40.752873136859755,
        "longitude": -73.92371733154123
    },
    {
        "name": "For The Culture- Brunch Party",
        "description": "JOE MORRIS IS BACK WITH THE #1 BRUNCH PARTY IN NYC!!",
        "date": "June 18 @ 2pm - 8pm",
        "address": "Brunch Harlem, 271 West 119th Street, New York, NY 10026",
        "activity_type": "Food",
        "city": "New York",
        "latitude": 40.80616278219697,
        "longitude": -73.95320296094178
    },
    {
        "name": "Brunch N Munch Sunday Day Party At Katra Nyc",
        "description": "BRUNCH N MUNCH Brunch Day Party $45++ prefix brunch & 2 Hr bottomless Mimosa, Bellini, & Rum Punch Music By NYC TOP DJs Reserve or more info [hidden] ...",
        "date": "June 18 @ 2pm - 11pm",
        "address": "Katra Lounge & Event Space, 217 Bowery, New York, NY 10002",
        "activity_type": "Music",
        "city": "New York",
        "latitude": 40.72178490053525,
        "longitude": -73.9932035988061
    },
    {
        "name": "Amat (Authors, Musings & Tea)",
        "description": "W\ufeffelcome to the Summer Solstice Edition of AMAT!!",
        "date": "June 18 @ 3pm - 5pm",
        "address": "Camera Ready Kutz, Inc., 73 Utica Avenue, Brooklyn, NY 11213, New York, NY",
        "activity_type": "Entertainment",
        "city": "New York",
        "latitude": 40.67639027650105,
        "longitude": -73.93023671689474
    },
    {
        "name": "Happy Hour At Lakou Cafe",
        "description": "Join us everyday from 3pm to 7pm for Happy Hour!",
        "date": "June 18 @ 3pm - 7pm",
        "address": "Lakou Cafe, 195 Utica Avenue, Brooklyn, NY 11213, New York, NY",
        "activity_type": "Happy Hour",
        "city": "New York",
        "latitude": 40.67208506421992,
        "longitude": -73.93055082709549
    },
    {
        "name": "Juneteenth Rooftop Dreams",
        "description": "Juneteenth Rooftop Day Party Sunday June 18th Ladies free before 4pm with rsvp Guys free before 4pm with rsvp at The Harbor Rooftop 621 W 46th St, New York, NY ...",
        "date": "June 18 @ 3pm - 10pm",
        "address": "Harbor NYC Rooftop, 621 West 46th Street, New York, NY 10036",
        "activity_type": "Happy Hour",
        "city": "New York",
        "latitude": 40.763942603247955,
        "longitude": -73.99754383992563
    },
    {
        "name": "Free Salsa Lessons Every Sunday At La Di\u00e1Spora In Chinatown, New York City",
        "description": "Every Sunday at La Di\u00e1spora Bar & Restaurant: come enjoy a free salsa lesson with one of our talented teachers, starting at 3pm.",
        "date": "June 18 @ 3pm - 4pm",
        "address": "La Di\u00e1spora Bar & Restaurant, 91 Baxter Street, New York, NY 10013",
        "activity_type": "Bar",
        "city": "New York",
        "latitude": 40.71678873754391,
        "longitude": -73.99934638620901
    },
    {
        "name": "Langroops Nyc - Brooklyn Language Exchange",
        "description": "Please be sure to check the details and RSVP on meetup: [hidden] \u2705RSVP on Meetup is required to join this event.",
        "date": "June 18 @ 3pm - 5pm",
        "address": "Central Library, 10 Grand Army Plaza, Brooklyn, NY 11238, New York, NY",
        "activity_type": "Entertainment",
        "city": "New York",
        "latitude": 40.67254315007303,
        "longitude": -73.96824461136153
    },
    {
        "name": "Free Live Jazz Music - Jam Session & Jazz Open Mic - Every Sunday!",
        "description": "The Free \u201c Jazz By Jorei \u201d event is a Weekly Jazz & Blue s Series!",
        "date": "June 18 @ 3:30pm - 6:30pm",
        "address": "Sour Mouse, NYC, 110 Delancey Street, New York, NY 10002",
        "activity_type": "Music",
        "city": "New York",
        "latitude": 40.718993361723626,
        "longitude": -73.98835493501963
    },
    {
        "name": "Sunday Jazz - Underground Social Club",
        "description": "Come by Sour Mouse sunday afternoon to grab a drink and enjoy amazing singers and musicians performances.",
        "date": "June 18 @ 4pm - 7pm",
        "address": "Sour Mouse, 110 Delancey Street, New York, NY 10002",
        "activity_type": "Club",
        "city": "New York",
        "latitude": 40.71905859306365,
        "longitude": -73.98836280606821
    },
    {
        "name": "Filmmaking Discussion Group",
        "description": "Join us for an exciting and engaging filmmaking discussion group at Lincoln Center.",
        "date": "June 18 @ 4pm - 6pm",
        "address": "Lincoln Center for the Performing Arts, Lincoln Center Plaza, New York, NY 10023",
        "activity_type": "Art",
        "city": "New York",
        "latitude": 40.77255897519596,
        "longitude": -73.98357573387126
    },
    {
        "name": "Roots Reggae Sundays",
        "description": "You don\u2019t haffi dread to be Rasta!",
        "date": "June 18 @ 4pm - 9pm",
        "address": "The Rogers Garden, 708 Rogers Avenue, Brooklyn, NY 11226, New York, NY",
        "activity_type": "Entertainment",
        "city": "New York",
        "latitude": 40.65425324414958,
        "longitude": -73.9530945002375
    },
    {
        "name": "Learning Centers Open Hours",
        "description": "On Sunday, June 18th, come visit the Fountain and Penn Learning Centers between 4pm and 6pm.",
        "date": "June 18 @ 4pm - 6pm",
        "address": "Shirley Chisholm State Park - Both Sides, 1750 Pennsylvania Ave, Brooklyn, NY 11239, New York, NY",
        "activity_type": "Art",
        "city": "New York",
        "latitude": 40.640436248262624,
        "longitude": -73.87378224294389
    },
    {
        "name": "Free | Wolfe\u2019S Pond Park - Father\u2019S Day Celebration!",
        "description": "Join us at Wolfe's Pond Park for a laughter-filled Father's Day Celebration!",
        "date": "June 18 @ 4:30pm - 6pm",
        "address": "Wolfe's Pond Park, 420 Cornelia Ave, Staten Island, NY, New York, NY",
        "activity_type": "Entertainment",
        "city": "New York",
        "latitude": 40.51920451545396,
        "longitude": -74.19022682658328
    },
    {
        "name": "Jazz Vespers: Lex Korten And David Leon",
        "description": "NYC's unique jazz prayer service, Sundays at 5 since 1965.",
        "date": "June 18 @ 5pm - 6pm",
        "address": "Saint Peter's Church, 619 Lexington Avenue, New York, NY 10022",
        "activity_type": "Music",
        "city": "New York",
        "latitude": 40.758804458656016,
        "longitude": -73.97049322286414
    },
    {
        "name": "Nyc Book Release Party: Drew Pisarra's \"Periodic Boyfriends\"",
        "description": "Overview On Sun., Jun.",
        "date": "June 18 @ 5pm - 6pm",
        "address": "Bureau of General Services\u2014Queer Division, 208 West 13th Street #Room 210, New York, NY 10011",
        "activity_type": "Happy Hour",
        "city": "New York",
        "latitude": 40.738093422071124,
        "longitude": -74.00095244250289
    },
    {
        "name": "Sunday Fun Day",
        "description": "Day party music events Make day parties fun again!",
        "date": "June 18 - June 19 @ 5pm - 1am",
        "address": "4 St Marks Pl, 4 Saint Marks Place, New York, NY 10003",
        "activity_type": "Music",
        "city": "New York",
        "latitude": 40.72935214500063,
        "longitude": -73.98961952148905
    },
    {
        "name": "Beautiful Sundays Day Party",
        "description": "From the teams who brought you the #1 Brunch in the city R&B Sundays we present\u2026 Beautiful Sundays Day Party!",
        "date": "June 18 - June 19 @ 5pm - 12am",
        "address": "Taj Restaurant & Lounge, Taj 48 W. .21st, New York, NY 10010",
        "activity_type": "Happy Hour",
        "city": "New York",
        "latitude": 40.72687680759987,
        "longitude": -73.98807259388315
    },
    {
        "name": "Juneteenth With Friends",
        "description": "How do we celebrate freedom?!?",
        "date": "June 18 @ 5pm - 10pm",
        "address": "LeFrak Center at Lakeside, 171 East Drive, Brooklyn, NY 11225, New York, NY",
        "activity_type": "Club",
        "city": "New York",
        "latitude": 40.65728476853928,
        "longitude": -73.96425819432953
    },
    {
        "name": "Sunday Nights Jazz",
        "description": "You've found the perfect romantic spot for a lazy Sunday night out.",
        "date": "June 18 @ 5pm - 11pm",
        "address": "1370 Rockaway Pkwy, 1370 Rockaway Parkway, Brooklyn, NY 11236, New York, NY",
        "activity_type": "Music",
        "city": "New York",
        "latitude": 40.64622238029736,
        "longitude": -73.90376314604457
    },
    {
        "name": "Comedy Mob @ New York Comedy Club: Free Comedy Show Nyc",
        "description": "Come experience some of the best stand up comedy in NYC at the historic New York Comedy Club, East 4th Location.",
        "date": "June 18 @ 5:30pm - 7pm",
        "address": "New York Comedy Club, 85 East 4th Street, New York, NY 10003",
        "activity_type": "Club",
        "city": "New York",
        "latitude": 40.72670660453975,
        "longitude": -73.98975608875232
    },
    {
        "name": "Foodie Starts Here - Best Pizza In Nyc (Brooklyn)",
        "description": "Foodie starts here - Best Pizza in NYC (Brooklyn) ***PLEASE READ THE DESCRIPTION*** This time we are going to taste the best pizza in North Brooklyn that was ...",
        "date": "June 18 @ 5:45pm - 7:15pm",
        "address": "87 Atlantic Ave, 87 Atlantic Avenue, Brooklyn, NY 11201, New York, NY",
        "activity_type": "Entertainment",
        "city": "New York",
        "latitude": 40.69129158332305,
        "longitude": -73.99740387803035
    },
    {
        "name": "Sunday Funday",
        "description": "\ud83d\ude0e\ud83d\ude43SUNDAY FUNDAY\ud83d\ude0e\ud83d\ude43 \ud83c\udfc8\ud83c\udf57FOOTBALL GAME LIVE ON ALL TVS, WITH $1 WINGS TILL THE END OF THE GAME!!!\ud83c\udf57\ud83c\udfc8 MUSIC BY: NYC TOPS DJ\u2019S Reggae | Soca | Top 40 | Hip Hop ...",
        "date": "June 18 - June 19 @ 6pm - 2am",
        "address": "NYX Bar & Lounge, 116-04 Rockaway Boulevard, Queens, NY 11420, New York, NY",
        "activity_type": "Music",
        "city": "New York",
        "latitude": 40.67630946063735,
        "longitude": -73.82189762734211
    },
    {
        "name": "Super Soul Sunday's @ 40/40 Club",
        "description": "EVERY SUNDAY: Super Soul Sundays @ The 40/40 Club powered by The Lions Group.",
        "date": "June 18 - June 19 @ 6pm - 1am",
        "address": "The 40/40 Club, 6 West 25th Street, New York, NY 10010",
        "activity_type": "Club",
        "city": "New York",
        "latitude": 40.743066250231806,
        "longitude": -73.98972638857332
    },
    {
        "name": "Wett Sundays - (Now At Trendz Lounge Brooklyn)",
        "description": "Back Like We Never Left....",
        "date": "June 18 - June 19 @ 6pm - 2am",
        "address": "Trendz Bar & Lounge, 8906 Ditmas Avenue, Brooklyn, NY 11236, New York, NY",
        "activity_type": "Lounge",
        "city": "New York",
        "latitude": 40.68302759278164,
        "longitude": -73.91739346673717
    },
    {
        "name": "May Vida Professionals Mixer",
        "description": "State and city budgets have just released - we know that effects us all in some way or another, especially our local businesses.",
        "date": "June 18 @ 6pm - 9pm",
        "address": "Footprints Cafe, 5814 Clarendon Road, Brooklyn, NY 11203, New York, NY",
        "activity_type": "Entertainment",
        "city": "New York",
        "latitude": 40.64473621054758,
        "longitude": -73.92128289399129
    },
    {
        "name": "Last Call Comedy Show W/ Comics From Netflix, Hbo , Nbc, Snl, Amazon Prime",
        "description": "Last Call Comedy is a Manhattan style Comedy show on the border between Brooklyn & Queens featuring the best comics in NYC.",
        "date": "June 18 @ 6:30pm - 8pm",
        "address": "Bridge and Tunnel Brewery, 15-35 Decatur Street, Queens, NY 11385, New York, NY",
        "activity_type": "Art",
        "city": "New York",
        "latitude": 40.69375010037064,
        "longitude": -73.90275886018756
    },
    {
        "name": "Sing & Sip: Karaoke Happy Hour",
        "description": "Join us for a night of singing, sipping, and socializing at Sing & Sip: Karaoke Happy Hour here at Sing Sing Ave A!",
        "date": "June 18 @ 7pm - 10pm",
        "address": "Sing Sing Ave A., 81 Avenue A, New York, NY 10009",
        "activity_type": "Happy Hour",
        "city": "New York",
        "latitude": 40.72512828457708,
        "longitude": -73.98456200897529
    },
    {
        "name": "Beat Our Pacman High Score For A Free Gift !",
        "description": "BEAT OUR HIGH SCORE IN PAC MAN AND WIN A FREE GIFT !",
        "date": "June 18 @ 7pm - 10pm",
        "address": "156 Sullivan St, 156 Sullivan Street, New York, NY 10012",
        "activity_type": "Entertainment",
        "city": "New York",
        "latitude": 40.72742104025476,
        "longitude": -74.00190007655114
    },
    {
        "name": "Sapphire New York - Comp Entry Ticket!",
        "description": "Sapphire New york brings you the best of NYC nightlife with an adult twist.",
        "date": "June 18 - June 19 @ 7pm - 4am",
        "address": "Sapphire New York, 333 East 60th Street, New York, NY 10022",
        "activity_type": "Entertainment",
        "city": "New York",
        "latitude": 40.76060630519316,
        "longitude": -73.96228687955472
    },
    {
        "name": "The Miranda Rights",
        "description": "MCP debuts her band of the kindest, coolest cats in NYC with funk, blues, r&b and soul to warm your bones.",
        "date": "June 18 @ 7pm - 8:30pm",
        "address": "Groove, 125 MacDougal Street, New York, NY 10012",
        "activity_type": "Music",
        "city": "New York",
        "latitude": 40.73059673135822,
        "longitude": -74.00013965047778
    },
    {
        "name": "Eat, Drink, Smoke, Party",
        "description": "Full Kitchen, Full Bar, Hookah, Bottle Service, Live DJ",
        "date": "June 18 @ 7pm - 10pm",
        "address": "2402 86th St, 2402 86th Street, Brooklyn, NY 11214, New York, NY",
        "activity_type": "Bar",
        "city": "New York",
        "latitude": 40.59893186168992,
        "longitude": -73.98929876273047
    },
    {
        "name": "Dinner & Karaoke Sundays",
        "description": "We put the fun in Nightlife Come Join us Every Sunday @333.lounge 333 FLATBUSH Ave The Dinner Party w/a twist of Karaoke Dinner & Karaoke We Sing along ...",
        "date": "June 18 @ 7pm - 10pm",
        "address": "333 Lounge, 333 Flatbush Avenue, Brooklyn, NY 11217, New York, NY",
        "activity_type": "Lounge",
        "city": "New York",
        "latitude": 40.67784029238303,
        "longitude": -73.97270883801309
    },
    {
        "name": "Sapphire Times Square - Comp Entry Passes! Nyc",
        "description": "Sapphire Times Square is back!",
        "date": "June 18 - June 19 @ 7pm - 4am",
        "address": "Sapphire Times Square NYC Gentlemen's Club, 1674 Broadway, New York, NY 10019",
        "activity_type": "Entertainment",
        "city": "New York",
        "latitude": 40.76281414438769,
        "longitude": -73.98283260708061
    },
    {
        "name": "Free Sunday Night Comedy Show In Soho",
        "description": "A free comedy show featuring comics who have appeared on Comedy Central, TruTV, Colbert, etc.",
        "date": "June 18 @ 7pm - 8:30pm",
        "address": "Vig Bar, 12 Spring Street, New York, NY 10012",
        "activity_type": "Art",
        "city": "New York",
        "latitude": 40.72118702752594,
        "longitude": -73.99471047722575
    },
    {
        "name": "Salsa Sundays At Verlaine",
        "description": "Tickets ARE NOT REQUIRED and DO NOT guarantee admission.",
        "date": "June 18 @ 7pm - 10pm",
        "address": "Verlaine, 110 Rivington Street, New York, NY 10002",
        "activity_type": "Happy Hour",
        "city": "New York",
        "latitude": 40.719984338062204,
        "longitude": -73.98772170494861
    },
    {
        "name": "Sapphire 39 Midtown Nyc - Comp Entry Ticket!",
        "description": "Sapphire 39 Midtown NYC brings you the best of NYC nightlife with an adult twist.",
        "date": "June 18 @ 7pm - 11pm",
        "address": "Sapphire 39, 20 West 39th Street, New York, NY 10018",
        "activity_type": "Entertainment",
        "city": "New York",
        "latitude": 40.75189867526594,
        "longitude": -73.98345956605766
    },
    {
        "name": "Free Comedy Show Tix! Top Comics!",
        "description": "Get your FREE tickets to the hilarious comedy club show at Greenwich Village Comedy Club Come see top NYC comedians from Comedy Central, MTV, Sirius XM, ...",
        "date": "June 18 @ 7:30pm - 9pm",
        "address": "Greenwich Village Comedy Club, 99 Macdougal Street, New York, NY 10012",
        "activity_type": "Club",
        "city": "New York",
        "latitude": 40.729703772225236,
        "longitude": -74.00107753868147
    },
    {
        "name": "Nyc Standup Comedy- Secret Sauce Comedy - A Free Show On Sundays",
        "description": "S\ufeffecret Sauce Comedy is already one of the hottest shows in the country!",
        "date": "June 18 @ 8pm - 9:30pm",
        "address": "Beauty Bar, 231 East 14th Street, New York, NY 10003",
        "activity_type": "Art",
        "city": "New York",
        "latitude": 40.732896464915164,
        "longitude": -73.9856477186004
    },
    {
        "name": "Salsa Sundays At Verlaine Bar Lounge",
        "description": "Mi gente, I'm super excited to announce that Sunday Salsa Nights is back at Verlaine's with Maria Raquel's Quintet and yours truly \" El Boricua del Sabor \" DJ ...",
        "date": "June 18 - June 19 @ 8pm - 12am",
        "address": "Verlaine, 110 Rivington Street, New York, NY 10002",
        "activity_type": "Bar",
        "city": "New York",
        "latitude": 40.72010710426307,
        "longitude": -73.98780518024829
    },
    {
        "name": "Unityfest Weekend At Time Out Market",
        "description": "UNITYFEST WEEKEND AT TIME OUT MARKET Come together to celebrate connection, inclusion and identity at Time Out Market\u2019s Unityfest Weekend!",
        "date": "June 18 - June 19 @ 9pm - 12am",
        "address": "Time Out Market New York, 55 Water Street DUMBO, Brooklyn, NY 11201",
        "activity_type": "Food",
        "city": "New York",
        "latitude": 40.703389612043985,
        "longitude": -73.99209007123493
    },
    {
        "name": "Ug! Comedy Show!! @ The Secret Pour",
        "description": "UG!",
        "date": "June 18 @ 9pm - 11pm",
        "address": "Secret Pour, 1114 DeKalb Avenue, Brooklyn, NY 11221, New York, NY",
        "activity_type": "Art",
        "city": "New York",
        "latitude": 40.693764481493936,
        "longitude": -73.92976296504942
    },
    {
        "name": "Jem Bleu & Ji-Groove",
        "description": "Jem Bleu & Ji-Groove | No Cover",
        "date": "June 18 @ 9pm - 10:30pm",
        "address": "Groove, 125 MacDougal Street, New York, NY 10012",
        "activity_type": "Entertainment",
        "city": "New York",
        "latitude": 40.730652544477,
        "longitude": -74.00011508866143
    },
    {
        "name": "Stoop Sessions: Big Band Jubilee Afterparty At Ginny's",
        "description": "Sunday, June 18th we're hosting our legendary 2nd Annual \"Stoop Sessions: Big Band Jubilee\" in Harlem on 120th St bt Lenox Av and Mount Morris Park West.",
        "date": "June 18 - June 19 @ 9:30pm - 12am",
        "address": "Ginny's Supper Club, 310 Malcolm X Boulevard, New York, NY 10027",
        "activity_type": "Music",
        "city": "New York",
        "latitude": 40.80803055423682,
        "longitude": -73.9447049188802
    },
    {
        "name": "Gvo Sundays",
        "description": "Each & Every Sunday Join Us For #GVOSundays at @BlendLoungeNY, Where It\u2019s All About Good Vibes Only!",
        "date": "June 18 - June 19 @ 10pm - 4am",
        "address": "BLEND LOUNGE, 127-07 Atlantic Avenue, Queens, NY 11419, New York, NY",
        "activity_type": "Entertainment",
        "city": "New York",
        "latitude": 40.69551216264587,
        "longitude": -73.82057467220434
    },
    {
        "name": "Icp Ent Night Life Happy Sunday @ Somewhere Nowhere",
        "description": "HAPPY SUNDAY \ud83c\udf1e RSVP to Join my HOT \ud83d\udd25 Rooftop Party \ud83c\udf89 tonight @ \ud83d\udd25\u27a1\ufe0f SOMEWHERE NOWHERE!",
        "date": "June 18 - June 19 @ 11pm - 3am",
        "address": "Somewhere Nowhere NYC - Lounge, Nightclub & Rooftop Pool, 112 West 25th Street, New York, NY 10001",
        "activity_type": "Music",
        "city": "New York",
        "latitude": 40.744269431438795,
        "longitude": -73.99276910065062
    },
    {
        "name": "Free Comedy Show Club Tickets!",
        "description": "FREE TICKETS to the Broadway Comedy Club!",
        "date": "June 18 - June 19 @ 11pm - 12:30am",
        "address": "Broadway Comedy Club, 318 West 53rd Street, New York, NY 10019",
        "activity_type": "Club",
        "city": "New York",
        "latitude": 40.7686104853902,
        "longitude": -73.9918082009316
    },
    {
        "name": "Culture Clash",
        "description": "HD PROMOTIONS/ TEAMHDNYC ENT.",
        "date": "June 18 - June 19 @ 11pm - 4am",
        "address": "Taj II Lounge and Event Space, 48 West 21st Street, New York, NY 10010",
        "activity_type": "Entertainment",
        "city": "New York",
        "latitude": 40.741305000430614,
        "longitude": -73.99318382120018
    },
    {
        "name": "Any Given Sunday @ Harbor Nyc",
        "description": "EVERY SUNDAY: Any Given Sunday @ Harbor NYC Rooftop powered by The Lions Group.",
        "date": "June 18 - June 19 @ 11pm - 4am",
        "address": "Harbor NYC Rooftop, 621 West 46th Street, New York, NY 10036",
        "activity_type": "Art",
        "city": "New York",
        "latitude": 40.7639703001543,
        "longitude": -73.99769030869766
    },
    {
        "name": "Sunday Night Live",
        "description": "Sunday Nights dedicated to the independent artists & influencers.",
        "date": "June 18 - June 19 @ 11pm - 4am",
        "address": "Secrets NYC, 245-11 Francis Lewis Boulevard, Queens, NY 11422, New York, NY",
        "activity_type": "Entertainment",
        "city": "New York",
        "latitude": 40.66477011991428,
        "longitude": -73.73463810206727
    },
    {
        "name": "Union Square Greenmarket Mondays",
        "description": "Open Mondays year-round on North and West sides of Union Square Park - the world-famous Union Square Greenmarket began with just a few farmers in 1976, has ...",
        "date": "June 19 @ 8am - 6pm. Weekly",
        "address": "17th Street and Union Square West, New York, New York 10003",
        "activity_type": "Outdoor",
        "city": "New York",
        "latitude": 40.73710388008581,
        "longitude": -73.99032008860748
    },
    {
        "name": "Socrates Sculpture Park Free Admission Monday",
        "description": "Free Admission Monday at Socrates Sculpture Park Socrates - see INFO below.",
        "date": "June 19 @ 9am - 7:30pm. Weekly - Mondays",
        "address": "Socrates Sculpture Park, 32-01 Vernon Boulevard, Long Island City, NY, New York, NY",
        "activity_type": "Art",
        "city": "New York",
        "latitude": 40.76874948658687,
        "longitude": -73.9364959044603
    },
    {
        "name": "Federal Hall National Memorial Free Admission Monday",
        "description": "Free Admission Monday at Federal Hall National Memorial - see INFO below.",
        "date": "June 19 @ 9am - 5pm. Weekly - Mondays",
        "address": "Federal Hall, 26 Wall Street, New York, NY",
        "activity_type": "Entertainment",
        "city": "New York",
        "latitude": 40.70742809255386,
        "longitude": -74.01022233348712
    },
    {
        "name": "Art Start Portrait Project Exhibition",
        "description": "See Me Because, The Art Start Portrait Project, Volume 11 is a multimedia project that includes Art Start Portrait Project images, accompanying videos, and ...",
        "date": "June 19 @ 10am - 5pm",
        "address": "Sotheby's New York, 1334 York Avenue, New York, NY 10021",
        "activity_type": "Art",
        "city": "New York",
        "latitude": 40.76638085437259,
        "longitude": -73.9537200591487
    },
    {
        "name": "Summer on the Hudson: Tai Chi",
        "description": "Learn and practice Tai Chi, a slow moving martial art with health benefits for all fitness levels.",
        "date": "June 18 @ 08AM - June 18 @ 09AM",
        "address": "Soldiers' and Sailors' Monument, New York, NY",
        "activity_type": "Art",
        "city": "New York",
        "latitude": 40.79208929706172,
        "longitude": -73.97902713688626
    },
    {
        "name": "It's My Park at Marine Park",
        "description": "Volunteer with Marine Park Alliance to beautify Marine Park.",
        "date": "June 18 @ 08AM - June 18 @ 10AM",
        "address": "Avenue S and East 32nd street park entrance, New York, NY",
        "activity_type": "Outdoor",
        "city": "New York",
        "latitude": 40.603943543125226,
        "longitude": -73.9533097504352
    },
    {
        "name": "NYRR Open Run: Cunningham Park",
        "description": "NYRR Open Run Brings free, 5K weekly community-led runs, to neighborhood parks across the greater New York City area.",
        "date": "June 18 @ 09AM - June 18 @ 12PM",
        "address": "Union Turnpike Parking Lot, New York, NY",
        "activity_type": "Outdoor",
        "city": "New York",
        "latitude": 40.72894652334374,
        "longitude": -73.78206832421401
    },
    {
        "name": "NYRR Open Run: Marine Park",
        "description": "NYRR Open Run Brings free, 5K weekly community-led runs, to neighborhood parks across the greater New York City area.",
        "date": "June 18 @ 09AM - June 18 @ 12PM",
        "address": "Carmine Carro Community Center, New York, NY",
        "activity_type": "Outdoor",
        "city": "New York",
        "latitude": 40.607851254847965,
        "longitude": -73.93731287174008
    },
    {
        "name": "NYRR Open Run: Conference House Park",
        "description": "NYRR Open Run Brings free, 5K weekly community-led runs, to neighborhood parks across the greater New York City area.",
        "date": "June 18 @ 09AM - June 18 @ 12PM",
        "address": "Hylan Blvd. Parking Lot, New York, NY",
        "activity_type": "Outdoor",
        "city": "New York",
        "latitude": 40.54639552063027,
        "longitude": -74.1414136746942
    },
    {
        "name": "Marine Park Alliance Presents: Intro to Birding",
        "description": "Learn how to use binoculars and spot the fascinating birds that live in the salt marsh together with an expert from NYC Audubon.",
        "date": "June 18 @ 09AM - June 18 @ 10AM",
        "address": "Burnett Street and Avenue U, New York, NY",
        "activity_type": "Outdoor",
        "city": "New York",
        "latitude": 40.60268525509674,
        "longitude": -73.93344512593235
    },
    {
        "name": "It's My Park at Skyline Playground",
        "description": "Volunteer with HEALTH for Youths to help maintain the community garden at Skyline Playground and a general clean-up around the park.",
        "date": "June 18 @ 09AM - June 18 @ 11AM",
        "address": "Skyline Playground Garden, New York, NY",
        "activity_type": "Outdoor",
        "city": "New York",
        "latitude": 40.639133185130845,
        "longitude": -74.0897604016894
    },
    {
        "name": "Free Public Sunday Adventure Course Programs",
        "description": "Free Public Sunday Programs-Free programs are available on a first-come, first-served basis.",
        "date": "June 18 @ 09AM - June 18 @ 11AM",
        "address": "Alley Pond Adventure Course, New York, NY",
        "activity_type": "Entertainment",
        "city": "New York",
        "latitude": 40.74270667572601,
        "longitude": -73.74113400192093
    },
    {
        "name": "It's My Park at Sunset Park",
        "description": "Volunteer with Parent-Child Relationship Association to beautify Sunset Park.",
        "date": "June 18 @ 10AM - June 18 @ 12PM",
        "address": "Sunset Park Recreation Center, New York, NY",
        "activity_type": "Outdoor",
        "city": "New York",
        "latitude": 40.64685548746533,
        "longitude": -74.00205473324519
    },
    {
        "name": "It's My Park at Owl's Head Park",
        "description": "Volunteer with Owl's Head Park Volunteers to beautify Owl's Head Park.",
        "date": "June 18 @ 10AM - June 18 @ 12PM",
        "address": "Owl's Head Park House, New York, NY",
        "activity_type": "Outdoor",
        "city": "New York",
        "latitude": 40.64022165290832,
        "longitude": -74.03220549610896
    },
    {
        "name": "Yoga",
        "description": "Socrates is delighted to offer FREE yoga classes of Vinyasa yoga \u2013 a series of flowing poses linked to the awareness of breath.",
        "date": "June 18 @ 10AM - June 18 @ 11AM",
        "address": "Socrates Sculpture Park, New York, NY",
        "activity_type": "Wellness",
        "city": "New York",
        "latitude": 40.76874047648264,
        "longitude": -73.93656408004334
    },
    {
        "name": "Family Art Project: Family Tree for Father's Day",
        "description": "Celebrate a father figure in your life.",
        "date": "June 18 @ 10AM - June 18 @ 01PM",
        "address": "Wave Hill House, New York, NY",
        "activity_type": "Art",
        "city": "New York",
        "latitude": 40.89789951375358,
        "longitude": -73.91137702660964
    },
    {
        "name": "Sunday Stewardship Day - Fort Tryon Park",
        "description": "The Fort Tryon Park Trust hosts volunteer opportunities for you, your friends, and family to dig in the dirt!",
        "date": "June 18 @ 10AM - June 18 @ 01PM",
        "address": "Margaret Corbin Circle, New York, NY",
        "activity_type": "Outdoor",
        "city": "New York",
        "latitude": 40.85927605536566,
        "longitude": -73.93399426822529
    },
    {
        "name": "Athletic Conditioning",
        "description": "This athletic conditioning workout will engage your entire body to elevate your heart rate, strengthen muscles, and improve coordination and balance",
        "date": "June 18 @ 11AM - June 18 @ 12PM",
        "address": "Ballfields, New York, NY",
        "activity_type": "Entertainment",
        "city": "New York",
        "latitude": 40.76980116289313,
        "longitude": -73.97626220271647
    },
    {
        "name": "Tree Wonder",
        "description": "Gather on Sundays in Washington Square Park to wonder and draw the English Elm, the oldest tree in Manhattan.",
        "date": "June 18 @ 11AM - June 18 @ 12PM",
        "address": "Northwest Corner Seating Area, New York, NY",
        "activity_type": "Outdoor",
        "city": "New York",
        "latitude": 40.75672590039115,
        "longitude": -73.99277232681197
    },
    {
        "name": "Juneteenth: Brooklyn and the Abolitionist Movement",
        "description": "Join the Urban Park Rangers on a walk discussing Brooklyn's significant history to the abolitionist movement in the United States..",
        "date": "June 18 @ 11AM - June 18 @ 12PM",
        "address": "Corner of Furman and Old Fulton Streets, New York, NY",
        "activity_type": "Outdoor",
        "city": "New York",
        "latitude": 40.702975751289486,
        "longitude": -73.99473567971052
    },
    {
        "name": "Birds of Prey",
        "description": "Join Bobby Horvath of Wildlife in Need of Rescue & Rehabilitation (WINORR) as he teaches about various birds of prey.",
        "date": "June 18 @ 11AM - June 18 @ 12PM",
        "address": "Sobelsohn Playground, New York, NY",
        "activity_type": "Entertainment",
        "city": "New York",
        "latitude": 40.7095037304202,
        "longitude": -73.83604708815398
    },
    {
        "name": "Historic New York: The General Slocum Disaster Two-Borough Tour",
        "description": "On June 15, 1904, the tragedy of the General Slocum occured right near Astoria Park.",
        "date": "June 18 @ 11AM - June 18 @ 12PM",
        "address": "Hoyt Avenue North and 19th Street, New York, NY",
        "activity_type": "Outdoor",
        "city": "New York",
        "latitude": 40.61634878774777,
        "longitude": -73.95575722199449
    },
    {
        "name": "Juneteenth: History of Sandy Ground",
        "description": "oin the Urban Park Rangers at Sandy Ground Woods to learn about the oldest continuously inhabited free Black settlement in the United States.",
        "date": "June 18 @ 11AM - June 18 @ 12PM",
        "address": "Parking Lot - Bricktown Way Entrance, New York, NY",
        "activity_type": "Outdoor",
        "city": "New York",
        "latitude": 40.52965028308963,
        "longitude": -74.23038105108134
    },
    {
        "name": "Beginner Yoga",
        "description": "Connect with yourself in Beginner Yoga, a class to be enjoyed by all.",
        "date": "June 18 @ 11AM - June 18 @ 12PM",
        "address": "Sobelsohn Playground, New York, NY",
        "activity_type": "Workshop",
        "city": "New York",
        "latitude": 40.70950022449117,
        "longitude": -73.83604708747578
    },
    {
        "name": "Zumba",
        "description": "Zumba is a fusion of Latin, International and popular music dance themes creating a dynamic, exciting, effective fitness system!",
        "date": "June 18 @ 11AM - June 18 @ 12PM",
        "address": "Gorman Playground, New York, NY",
        "activity_type": "Music",
        "city": "New York",
        "latitude": 40.76237533513865,
        "longitude": -73.88414988509588
    },
    {
        "name": "It's My Park at Richmond Terrace Street Trees",
        "description": "Volunteer with HEALTH for Youths, in collaboration with the Staten Island Ferry Hawks, to clean up the street trees along Richmond Terrace.",
        "date": "June 18 @ 11AM - June 18 @ 01PM",
        "address": "78 Richmond Terrace, New York, NY",
        "activity_type": "Outdoor",
        "city": "New York",
        "latitude": 40.644676352692755,
        "longitude": -74.07741698097178
    },
    {
        "name": "NYC Parks Presents: Summer Kick-off Event at St. James Park!",
        "description": "Come Join NYC Parks for this \"Free\" Event",
        "date": "June 18 @ 12PM - June 18 @ 04PM",
        "address": "St. James Park, New York, NY",
        "activity_type": "Outdoor",
        "city": "New York",
        "latitude": 40.865062104746265,
        "longitude": -73.89778774888002
    },
    {
        "name": "Juneteenth Celebration at M'Finda Kalunga Garden",
        "description": "Celebrate Juneteenth at M'Finda Kalunga Garden on June 18th!",
        "date": "June 18 @ 12PM - June 18 @ 03PM",
        "address": "M'finda Kalunga Community Garden, New York, NY",
        "activity_type": "Music",
        "city": "New York",
        "latitude": 40.72111212607298,
        "longitude": -73.99179087637803
    },
    {
        "name": "It's My Park at Arverne Playground",
        "description": "Join Partnerships for Parks and Friends of Arverne/ Cardozo Park for an It's My Park project to beautify Arverne Playground.",
        "date": "June 18 @ 12PM - June 18 @ 03PM",
        "address": "Arverne Playground, New York, NY",
        "activity_type": "Outdoor",
        "city": "New York",
        "latitude": 40.59287554220311,
        "longitude": -73.78517254483054
    },
    {
        "name": "LGBTQ+ Pride Month: Historic Queens Pride",
        "description": "Celebrate LGBTQ+ Pride Month with NYC Parks.",
        "date": "June 18 @ 01PM - June 18 @ 02PM",
        "address": "Entrance - 34th Avenue between 77th and 78th Streets, New York, NY",
        "activity_type": "Outdoor",
        "city": "New York",
        "latitude": 40.75339005333554,
        "longitude": -73.88881478701316
    },
    {
        "name": "Tree ID Hike",
        "description": "The Urban Park Rangers will be leading a hike to help you learn how to identify native and non-native species of trees that call our city home.",
        "date": "June 18 @ 01PM - June 18 @ 02PM",
        "address": "Van Cortlandt Nature Center, New York, NY",
        "activity_type": "Outdoor",
        "city": "New York",
        "latitude": 40.89113622725793,
        "longitude": -73.89400964574979
    },
    {
        "name": "LGBTQ+ Pride Month: Nature For All",
        "description": "Celebrate LGBTQ+ Pride Month with NYC Parks!",
        "date": "June 18 @ 01PM - June 18 @ 02PM",
        "address": "Grand Army Plaza Arch, New York, NY",
        "activity_type": "Outdoor",
        "city": "New York",
        "latitude": 40.6730687060004,
        "longitude": -73.96996399053933
    },
    {
        "name": "Spring Family Day",
        "description": "Join Council Member James Gennaro and Queens Recreation as they present this fun day of family activities in Judge Moses Weinstein Playground.",
        "date": "June 18 @ 01PM - June 18 @ 04PM",
        "address": "Play Area, New York, NY",
        "activity_type": "Family",
        "city": "New York",
        "latitude": 40.71277204572192,
        "longitude": -74.00589205349111
    },
    {
        "name": "2nd Annual Juneteenth Arts Festival at Sam and Sadie Koeing Garden",
        "description": "Join the garden group for a celebration of Juneteenth!",
        "date": "June 18 @ 02PM - June 18 @ 06PM",
        "address": "Sam and Sadie Koenig Garden, New York, NY",
        "activity_type": "Music",
        "city": "New York",
        "latitude": 40.724276295992844,
        "longitude": -73.9781681233557
    },
    {
        "name": "Public Garden Highlights Walk",
        "description": "Join a knowledgeable Wave Hill Garden Guide for a leisurely stroll in the gardens.",
        "date": "June 18 @ 02PM - June 18 @ 03PM",
        "address": "Perkins Visitors Center, New York, NY",
        "activity_type": "Entertainment",
        "city": "New York",
        "latitude": 40.750317575658954,
        "longitude": -73.98871521657057
    },
    {
        "name": "Free Concert Performance by Richmond County Orchestra",
        "description": "Enjoy a free outdoor musical performance by the Richmond County Orchestra.",
        "date": "June 18 @ 03PM - June 18 @ 04PM",
        "address": "Great Lawn, New York, NY",
        "activity_type": "Music",
        "city": "New York",
        "latitude": 40.78163921781407,
        "longitude": -73.96636325064462
    },
    {
        "name": "Acoustic Jazz Music at 6BC Botanical Garden",
        "description": "Come enjoy music at 6BC Botanical Garden!",
        "date": "June 18 @ 04PM - June 18 @ 05PM",
        "address": "6BC Botanical Garden, New York, NY",
        "activity_type": "Music",
        "city": "New York",
        "latitude": 40.723786690273286,
        "longitude": -73.980710697405
    },
    {
        "name": "Laughter in the Park 2023! - Father's Day Laff in Wolfe's Pond Park!",
        "description": "NYLaughs presents Laughter in the Park on Father's Day!",
        "date": "June 18 @ 04PM - June 18 @ 06PM",
        "address": "Wolfe's Pond Park, New York, NY",
        "activity_type": "Outdoor",
        "city": "New York",
        "latitude": 40.519144442342366,
        "longitude": -74.19017558317609
    },
    {
        "name": "Summer on the Hudson: Let's Dance!",
        "description": "Learn to dance like a pro at these Salsa, Cha-Cha, and Bachata lessons and group social dances led by master teachers from the Piel Canela Dance and Music School.",
        "date": "June 18 @ 06PM - June 18 @ 09PM",
        "address": "Pier I, New York, NY",
        "activity_type": "Music",
        "city": "New York",
        "latitude": 40.779933743233556,
        "longitude": -73.98872929773731
    },
    {
        "name": "Community Science: Horseshoe Crab Monitoring",
        "description": "Join the Rangers as you will get up close and personal with horseshoe crabs.",
        "date": "June 18 @ 08PM - June 18 @ 09PM",
        "address": "Visitor Center - Satterlee Street and Hylan Boulevard, New York, NY",
        "activity_type": "Wellness",
        "city": "New York",
        "latitude": 40.502835254248694,
        "longitude": -74.25191557368665
    },
    {
        "name": "Movies Under the Stars: DC League of Super-Pets",
        "description": "Krypto the Super-Dog, otherwise known as Superman's pet.",
        "date": "June 18 @ 09PM - June 18 @ 11PM",
        "address": "Entrance - West 231st Street and Riverdale Avenue, New York, NY",
        "activity_type": "Entertainment",
        "city": "New York",
        "latitude": 40.881391224395124,
        "longitude": -73.9094013728331
    },
    {
        "name": "Movies Under the Stars: The Princess and The Frog",
        "description": "A prince is transformed into a frog and accidentally curses a beautiful princess with an amphibian form as well when he kisses her in an attempt to break the spell.",
        "date": "June 18 @ 09PM - June 18 @ 10PM",
        "address": "Multi-Purpose Play Area, New York, NY",
        "activity_type": "Entertainment",
        "city": "New York",
        "latitude": 40.680603844834124,
        "longitude": -73.9944511450846
    }
]